[
  { "name": "United States", "latitude": 37.0902, "longitude": -95.7129 },
  { "name": "Canada", "latitude": 56.1304, "longitude": -106.3468 },
  { "name": "Germany", "latitude": 51.1657, "longitude": 10.4515 },
  { "name": "Australia", "latitude": -25.2744, "longitude": 133.7751 },
  { "name": "United Kingdom", "latitude": 55.3781, "longitude": -3.4360 },
  { "name": "France", "latitude": 46.6034, "longitude": 1.8883 },
  { "name": "India", "latitude": 20.5937, "longitude": 78.9629 },
  { "name": "Brazil", "latitude": -14.2350, "longitude": -51.9253 },
  { "name": "China", "latitude": 35.8617, "longitude": 104.1954 },
  { "name": "Japan", "latitude": 36.2048, "longitude": 138.2529 },
  { "name": "Russia", "latitude": 61.5240, "longitude": 105.3188 },
  { "name": "Mexico", "latitude": 23.6345, "longitude": -102.5528 },
  { "name": "South Africa", "latitude": -30.5595, "longitude": 22.9375 },
  { "name": "Italy", "latitude": 41.8719, "longitude": 12.5674 },
  { "name": "Spain", "latitude": 40.4637, "longitude": -3.7492 },
  { "name": "Argentina", "latitude": -38.4161, "longitude": -63.6167 },
  { "name": "Saudi Arabia", "latitude": 23.8859, "longitude": 45.0792 },
  { "name": "Egypt", "latitude": 26.8206, "longitude": 30.8025 },
  { "name": "Turkey", "latitude": 38.9637, "longitude": 35.2433 },
  { "name": "Iran", "latitude": 32.4279, "longitude": 53.6880 },
  { "name": "Thailand", "latitude": 15.8700, "longitude": 100.9925 },
  { "name": "Vietnam", "latitude": 14.0583, "longitude": 108.2772 },
  { "name": "Philippines", "latitude": 12.8797, "longitude": 121.7740 },
  { "name": "Malaysia", "latitude": 4.2105, "longitude": 101.9758 },
  { "name": "Indonesia", "latitude": -0.7893, "longitude": 113.9213 },
  { "name": "New Zealand", "latitude": -40.9006, "longitude": 174.8860 },
  { "name": "Nigeria", "latitude": 9.0820, "longitude": 8.6753 },
  { "name": "Colombia", "latitude": 4.5709, "longitude": -74.2973 },
  { "name": "Peru", "latitude": -9.1900, "longitude": -75.0152 },
  { "name": "Chile", "latitude": -35.6751, "longitude": -71.5430 },
  { "name": "Bangladesh", "latitude": 23.685,"longitude": 90.3563 }
]
